<?xml version="1.0" encoding="UTF-8" standalone="yes"?>
<kml xmlns="http://earth.google.com/kml/2.1">
    <Document>
        <name>Bestelling</name>
        <open>true</open>
        <Style id="place_mark_circle_highlight">
            <IconStyle>
                <colorMode>normal</colorMode>
                <Icon>
                    <href>http://maps.google.com/mapfiles/kml/pal4/icon49.png</href>
                </Icon>
            </IconStyle>
        </Style>
        <Style id="place_mark_circle">
            <IconStyle>
                <colorMode>normal</colorMode>
                <Icon>
                    <href>http://maps.google.com/mapfiles/kml/pal4/icon57.png</href>
                </Icon>
            </IconStyle>
        </Style>
        <Folder>
            <name>DINO_GeologischBooronderzoekBoorgatMetingen</name>
            <open>true</open>
            <Placemark>
                <name>B51E0069_00.LAS</name>
                <styleUrl>#place_mark_circle_highlight</styleUrl>
                <Point>
                    <extrude>true</extrude>
                    <altitudeMode>relativeToGround</altitudeMode>
                    <coordinates>5.552976029,51.58258985</coordinates>
                </Point>
            </Placemark>
            <Placemark>
                <name>B45G1171_00.las</name>
                <styleUrl>#place_mark_circle_highlight</styleUrl>
                <Point>
                    <extrude>true</extrude>
                    <altitudeMode>relativeToGround</altitudeMode>
                    <coordinates>5.523946807,51.615939156</coordinates>
                </Point>
            </Placemark>
            <Placemark>
                <name>B51F0250_00.las</name>
                <styleUrl>#place_mark_circle_highlight</styleUrl>
                <Point>
                    <extrude>true</extrude>
                    <altitudeMode>relativeToGround</altitudeMode>
                    <coordinates>5.610545602,51.571330115</coordinates>
                </Point>
            </Placemark>
            <Placemark>
                <name>B45G0223_00.las</name>
                <styleUrl>#place_mark_circle_highlight</styleUrl>
                <Point>
                    <extrude>true</extrude>
                    <altitudeMode>relativeToGround</altitudeMode>
                    <coordinates>5.583153698,51.614713327</coordinates>
                </Point>
            </Placemark>
            <Placemark>
                <name>B45G0180_00.las</name>
                <styleUrl>#place_mark_circle_highlight</styleUrl>
                <Point>
                    <extrude>true</extrude>
                    <altitudeMode>relativeToGround</altitudeMode>
                    <coordinates>5.580967809,51.616748391</coordinates>
                </Point>
            </Placemark>
            <Placemark>
                <name>B51E0172_00.LAS</name>
                <styleUrl>#place_mark_circle_highlight</styleUrl>
                <Point>
                    <extrude>true</extrude>
                    <altitudeMode>relativeToGround</altitudeMode>
                    <coordinates>5.501697779,51.56480003</coordinates>
                </Point>
            </Placemark>
            <Placemark>
                <name>B45H0098_00.las</name>
                <styleUrl>#place_mark_circle_highlight</styleUrl>
                <Point>
                    <extrude>true</extrude>
                    <altitudeMode>relativeToGround</altitudeMode>
                    <coordinates>5.615280471,51.612228141</coordinates>
                </Point>
            </Placemark>
            <Placemark>
                <name>B51F0274_00.LAS</name>
                <styleUrl>#place_mark_circle_highlight</styleUrl>
                <Point>
                    <extrude>true</extrude>
                    <altitudeMode>relativeToGround</altitudeMode>
                    <coordinates>5.747556497,51.550583557</coordinates>
                </Point>
            </Placemark>
            <Placemark>
                <name>B45G0174_00.las</name>
                <styleUrl>#place_mark_circle_highlight</styleUrl>
                <Point>
                    <extrude>true</extrude>
                    <altitudeMode>relativeToGround</altitudeMode>
                    <coordinates>5.523929763,51.615076272</coordinates>
                </Point>
            </Placemark>
            <Placemark>
                <name>B51E0160_00.las</name>
                <styleUrl>#place_mark_circle_highlight</styleUrl>
                <Point>
                    <extrude>true</extrude>
                    <altitudeMode>relativeToGround</altitudeMode>
                    <coordinates>5.546784891,51.549340599</coordinates>
                </Point>
            </Placemark>
            <Placemark>
                <name>B51E0160_01.LAS</name>
                <styleUrl>#place_mark_circle_highlight</styleUrl>
                <Point>
                    <extrude>true</extrude>
                    <altitudeMode>relativeToGround</altitudeMode>
                    <coordinates>5.546784891,51.549340599</coordinates>
                </Point>
            </Placemark>
            <Placemark>
                <name>B45G1170_00.las</name>
                <styleUrl>#place_mark_circle_highlight</styleUrl>
                <Point>
                    <extrude>true</extrude>
                    <altitudeMode>relativeToGround</altitudeMode>
                    <coordinates>5.525144153,51.615596182</coordinates>
                </Point>
            </Placemark>
            <Placemark>
                <name>B45G0181_00.las</name>
                <styleUrl>#place_mark_circle_highlight</styleUrl>
                <Point>
                    <extrude>true</extrude>
                    <altitudeMode>relativeToGround</altitudeMode>
                    <coordinates>5.579171318,51.615313181</coordinates>
                </Point>
            </Placemark>
            <Placemark>
                <name>B45H0099_00.las</name>
                <styleUrl>#place_mark_circle_highlight</styleUrl>
                <Point>
                    <extrude>true</extrude>
                    <altitudeMode>relativeToGround</altitudeMode>
                    <coordinates>5.744009154,51.598198417</coordinates>
                </Point>
            </Placemark>
            <Placemark>
                <name>B51E0132_00.las</name>
                <styleUrl>#place_mark_circle_highlight</styleUrl>
                <Point>
                    <extrude>true</extrude>
                    <altitudeMode>relativeToGround</altitudeMode>
                    <coordinates>5.495722268,51.532725371</coordinates>
                </Point>
            </Placemark>
            <Placemark>
                <name>B45G0175_00.las</name>
                <styleUrl>#place_mark_circle_highlight</styleUrl>
                <Point>
                    <extrude>true</extrude>
                    <altitudeMode>relativeToGround</altitudeMode>
                    <coordinates>5.526891796,51.615791854</coordinates>
                </Point>
            </Placemark>
            <Placemark>
                <name>B45H0131_00.LAS</name>
                <styleUrl>#place_mark_circle_highlight</styleUrl>
                <Point>
                    <extrude>true</extrude>
                    <altitudeMode>relativeToGround</altitudeMode>
                    <coordinates>5.652722313,51.591034847</coordinates>
                </Point>
            </Placemark>
            <Placemark>
                <name>B45G1172_00.las</name>
                <styleUrl>#place_mark_circle_highlight</styleUrl>
                <Point>
                    <extrude>true</extrude>
                    <altitudeMode>relativeToGround</altitudeMode>
                    <coordinates>5.524004615,51.615957065</coordinates>
                </Point>
            </Placemark>
            <Placemark>
                <name>B45G0182_00.las</name>
                <styleUrl>#place_mark_circle_highlight</styleUrl>
                <Point>
                    <extrude>true</extrude>
                    <altitudeMode>relativeToGround</altitudeMode>
                    <coordinates>5.582270733,51.614193465</coordinates>
                </Point>
            </Placemark>
            <Placemark>
                <name>B45G0182_01.tif</name>
                <styleUrl>#place_mark_circle_highlight</styleUrl>
                <Point>
                    <extrude>true</extrude>
                    <altitudeMode>relativeToGround</altitudeMode>
                    <coordinates>5.582270733,51.614193465</coordinates>
                </Point>
            </Placemark>
            <Placemark>
                <name>B45G0182_02.tif</name>
                <styleUrl>#place_mark_circle_highlight</styleUrl>
                <Point>
                    <extrude>true</extrude>
                    <altitudeMode>relativeToGround</altitudeMode>
                    <coordinates>5.582270733,51.614193465</coordinates>
                </Point>
            </Placemark>
            <Placemark>
                <name>B45G0177_00.las</name>
                <styleUrl>#place_mark_circle_highlight</styleUrl>
                <Point>
                    <extrude>true</extrude>
                    <altitudeMode>relativeToGround</altitudeMode>
                    <coordinates>5.56159529,51.606612809</coordinates>
                </Point>
            </Placemark>
            <Placemark>
                <name>B51F0474_00.LAS</name>
                <styleUrl>#place_mark_circle_highlight</styleUrl>
                <Point>
                    <extrude>true</extrude>
                    <altitudeMode>relativeToGround</altitudeMode>
                    <coordinates>5.697456185,51.569783366</coordinates>
                </Point>
            </Placemark>
            <Placemark>
                <name>B45G1156_00.las</name>
                <styleUrl>#place_mark_circle_highlight</styleUrl>
                <Point>
                    <extrude>true</extrude>
                    <altitudeMode>relativeToGround</altitudeMode>
                    <coordinates>5.525374398,51.615344229</coordinates>
                </Point>
            </Placemark>
            <Placemark>
                <name>B51E0323_00.las</name>
                <styleUrl>#place_mark_circle_highlight</styleUrl>
                <Point>
                    <extrude>true</extrude>
                    <altitudeMode>relativeToGround</altitudeMode>
                    <coordinates>5.531653798,51.560623046</coordinates>
                </Point>
            </Placemark>
            <Placemark>
                <name>B45G0178_00.las</name>
                <styleUrl>#place_mark_circle_highlight</styleUrl>
                <Point>
                    <extrude>true</extrude>
                    <altitudeMode>relativeToGround</altitudeMode>
                    <coordinates>5.581906039,51.61332218</coordinates>
                </Point>
            </Placemark>
            <Placemark>
                <name>B45G0178_01.tif</name>
                <styleUrl>#place_mark_circle_highlight</styleUrl>
                <Point>
                    <extrude>true</extrude>
                    <altitudeMode>relativeToGround</altitudeMode>
                    <coordinates>5.581906039,51.61332218</coordinates>
                </Point>
            </Placemark>
            <Placemark>
                <name>B51F0155_00.las</name>
                <styleUrl>#place_mark_circle_highlight</styleUrl>
                <Point>
                    <extrude>true</extrude>
                    <altitudeMode>relativeToGround</altitudeMode>
                    <coordinates>5.608210851,51.559892028</coordinates>
                </Point>
            </Placemark>
            <Placemark>
                <name>B51F0155_01.tif</name>
                <styleUrl>#place_mark_circle_highlight</styleUrl>
                <Point>
                    <extrude>true</extrude>
                    <altitudeMode>relativeToGround</altitudeMode>
                    <coordinates>5.608210851,51.559892028</coordinates>
                </Point>
            </Placemark>
            <Placemark>
                <name>B51F0155_02.tif</name>
                <styleUrl>#place_mark_circle_highlight</styleUrl>
                <Point>
                    <extrude>true</extrude>
                    <altitudeMode>relativeToGround</altitudeMode>
                    <coordinates>5.608210851,51.559892028</coordinates>
                </Point>
            </Placemark>
            <Placemark>
                <name>B51F0155_03.las</name>
                <styleUrl>#place_mark_circle_highlight</styleUrl>
                <Point>
                    <extrude>true</extrude>
                    <altitudeMode>relativeToGround</altitudeMode>
                    <coordinates>5.608210851,51.559892028</coordinates>
                </Point>
            </Placemark>
            <Placemark>
                <name>B52A0162_00.las</name>
                <styleUrl>#place_mark_circle_highlight</styleUrl>
                <Point>
                    <extrude>true</extrude>
                    <altitudeMode>relativeToGround</altitudeMode>
                    <coordinates>5.763166584,51.543091703</coordinates>
                </Point>
            </Placemark>
            <Placemark>
                <name>B51E0159_00.LAS</name>
                <styleUrl>#place_mark_circle_highlight</styleUrl>
                <Point>
                    <extrude>true</extrude>
                    <altitudeMode>relativeToGround</altitudeMode>
                    <coordinates>5.503922262,51.521346833</coordinates>
                </Point>
            </Placemark>
            <Placemark>
                <name>B45G0229_00.las</name>
                <styleUrl>#place_mark_circle_highlight</styleUrl>
                <Point>
                    <extrude>true</extrude>
                    <altitudeMode>relativeToGround</altitudeMode>
                    <coordinates>5.584859499,51.618503639</coordinates>
                </Point>
            </Placemark>
            <Placemark>
                <name>B45G0179_00.las</name>
                <styleUrl>#place_mark_circle_highlight</styleUrl>
                <Point>
                    <extrude>true</extrude>
                    <altitudeMode>relativeToGround</altitudeMode>
                    <coordinates>5.583058112,51.615980878</coordinates>
                </Point>
            </Placemark>
            <Placemark>
                <name>B51F0249_00.las</name>
                <styleUrl>#place_mark_circle_highlight</styleUrl>
                <Point>
                    <extrude>true</extrude>
                    <altitudeMode>relativeToGround</altitudeMode>
                    <coordinates>5.648034892,51.551324614</coordinates>
                </Point>
            </Placemark>
        </Folder>
        <Folder>
            <name>DINO_GeologischBooronderzoekBoormonsterfoto</name>
            <open>true</open>
            <Placemark>
                <name>B51F1962_00.JPG</name>
                <styleUrl>#place_mark_circle_highlight</styleUrl>
                <Point>
                    <extrude>true</extrude>
                    <altitudeMode>relativeToGround</altitudeMode>
                    <coordinates>5.697070808,51.580939302</coordinates>
                </Point>
            </Placemark>
            <Placemark>
                <name>B51F1962_01.JPG</name>
                <styleUrl>#place_mark_circle_highlight</styleUrl>
                <Point>
                    <extrude>true</extrude>
                    <altitudeMode>relativeToGround</altitudeMode>
                    <coordinates>5.697070808,51.580939302</coordinates>
                </Point>
            </Placemark>
            <Placemark>
                <name>B51F1962_02.JPG</name>
                <styleUrl>#place_mark_circle_highlight</styleUrl>
                <Point>
                    <extrude>true</extrude>
                    <altitudeMode>relativeToGround</altitudeMode>
                    <coordinates>5.697070808,51.580939302</coordinates>
                </Point>
            </Placemark>
            <Placemark>
                <name>B51F1962_03.JPG</name>
                <styleUrl>#place_mark_circle_highlight</styleUrl>
                <Point>
                    <extrude>true</extrude>
                    <altitudeMode>relativeToGround</altitudeMode>
                    <coordinates>5.697070808,51.580939302</coordinates>
                </Point>
            </Placemark>
            <Placemark>
                <name>B51F1962_04.JPG</name>
                <styleUrl>#place_mark_circle_highlight</styleUrl>
                <Point>
                    <extrude>true</extrude>
                    <altitudeMode>relativeToGround</altitudeMode>
                    <coordinates>5.697070808,51.580939302</coordinates>
                </Point>
            </Placemark>
            <Placemark>
                <name>B51F1962_05.JPG</name>
                <styleUrl>#place_mark_circle_highlight</styleUrl>
                <Point>
                    <extrude>true</extrude>
                    <altitudeMode>relativeToGround</altitudeMode>
                    <coordinates>5.697070808,51.580939302</coordinates>
                </Point>
            </Placemark>
            <Placemark>
                <name>B51F0474_00.TIF</name>
                <styleUrl>#place_mark_circle_highlight</styleUrl>
                <Point>
                    <extrude>true</extrude>
                    <altitudeMode>relativeToGround</altitudeMode>
                    <coordinates>5.697456185,51.569783366</coordinates>
                </Point>
            </Placemark>
            <Placemark>
                <name>B51F0474_01.TIF</name>
                <styleUrl>#place_mark_circle_highlight</styleUrl>
                <Point>
                    <extrude>true</extrude>
                    <altitudeMode>relativeToGround</altitudeMode>
                    <coordinates>5.697456185,51.569783366</coordinates>
                </Point>
            </Placemark>
            <Placemark>
                <name>B51F0474_02.TIF</name>
                <styleUrl>#place_mark_circle_highlight</styleUrl>
                <Point>
                    <extrude>true</extrude>
                    <altitudeMode>relativeToGround</altitudeMode>
                    <coordinates>5.697456185,51.569783366</coordinates>
                </Point>
            </Placemark>
            <Placemark>
                <name>B51F0474_03.TIF</name>
                <styleUrl>#place_mark_circle_highlight</styleUrl>
                <Point>
                    <extrude>true</extrude>
                    <altitudeMode>relativeToGround</altitudeMode>
                    <coordinates>5.697456185,51.569783366</coordinates>
                </Point>
            </Placemark>
            <Placemark>
                <name>B51F0474_04.TIF</name>
                <styleUrl>#place_mark_circle_highlight</styleUrl>
                <Point>
                    <extrude>true</extrude>
                    <altitudeMode>relativeToGround</altitudeMode>
                    <coordinates>5.697456185,51.569783366</coordinates>
                </Point>
            </Placemark>
            <Placemark>
                <name>B51F0474_05.TIF</name>
                <styleUrl>#place_mark_circle_highlight</styleUrl>
                <Point>
                    <extrude>true</extrude>
                    <altitudeMode>relativeToGround</altitudeMode>
                    <coordinates>5.697456185,51.569783366</coordinates>
                </Point>
            </Placemark>
            <Placemark>
                <name>B51F0474_06.TIF</name>
                <styleUrl>#place_mark_circle_highlight</styleUrl>
                <Point>
                    <extrude>true</extrude>
                    <altitudeMode>relativeToGround</altitudeMode>
                    <coordinates>5.697456185,51.569783366</coordinates>
                </Point>
            </Placemark>
            <Placemark>
                <name>B51F0474_07.TIF</name>
                <styleUrl>#place_mark_circle_highlight</styleUrl>
                <Point>
                    <extrude>true</extrude>
                    <altitudeMode>relativeToGround</altitudeMode>
                    <coordinates>5.697456185,51.569783366</coordinates>
                </Point>
            </Placemark>
            <Placemark>
                <name>B51F0474_08.TIF</name>
                <styleUrl>#place_mark_circle_highlight</styleUrl>
                <Point>
                    <extrude>true</extrude>
                    <altitudeMode>relativeToGround</altitudeMode>
                    <coordinates>5.697456185,51.569783366</coordinates>
                </Point>
            </Placemark>
            <Placemark>
                <name>B51F0474_09.TIF</name>
                <styleUrl>#place_mark_circle_highlight</styleUrl>
                <Point>
                    <extrude>true</extrude>
                    <altitudeMode>relativeToGround</altitudeMode>
                    <coordinates>5.697456185,51.569783366</coordinates>
                </Point>
            </Placemark>
            <Placemark>
                <name>B51F0474_10.TIF</name>
                <styleUrl>#place_mark_circle_highlight</styleUrl>
                <Point>
                    <extrude>true</extrude>
                    <altitudeMode>relativeToGround</altitudeMode>
                    <coordinates>5.697456185,51.569783366</coordinates>
                </Point>
            </Placemark>
            <Placemark>
                <name>B51F0474_11.TIF</name>
                <styleUrl>#place_mark_circle_highlight</styleUrl>
                <Point>
                    <extrude>true</extrude>
                    <altitudeMode>relativeToGround</altitudeMode>
                    <coordinates>5.697456185,51.569783366</coordinates>
                </Point>
            </Placemark>
            <Placemark>
                <name>B51F0474_12.TIF</name>
                <styleUrl>#place_mark_circle_highlight</styleUrl>
                <Point>
                    <extrude>true</extrude>
                    <altitudeMode>relativeToGround</altitudeMode>
                    <coordinates>5.697456185,51.569783366</coordinates>
                </Point>
            </Placemark>
            <Placemark>
                <name>B51F0474_13.TIF</name>
                <styleUrl>#place_mark_circle_highlight</styleUrl>
                <Point>
                    <extrude>true</extrude>
                    <altitudeMode>relativeToGround</altitudeMode>
                    <coordinates>5.697456185,51.569783366</coordinates>
                </Point>
            </Placemark>
            <Placemark>
                <name>B51F0474_14.TIF</name>
                <styleUrl>#place_mark_circle_highlight</styleUrl>
                <Point>
                    <extrude>true</extrude>
                    <altitudeMode>relativeToGround</altitudeMode>
                    <coordinates>5.697456185,51.569783366</coordinates>
                </Point>
            </Placemark>
            <Placemark>
                <name>B51F0474_15.TIF</name>
                <styleUrl>#place_mark_circle_highlight</styleUrl>
                <Point>
                    <extrude>true</extrude>
                    <altitudeMode>relativeToGround</altitudeMode>
                    <coordinates>5.697456185,51.569783366</coordinates>
                </Point>
            </Placemark>
            <Placemark>
                <name>B51F0474_16.TIF</name>
                <styleUrl>#place_mark_circle_highlight</styleUrl>
                <Point>
                    <extrude>true</extrude>
                    <altitudeMode>relativeToGround</altitudeMode>
                    <coordinates>5.697456185,51.569783366</coordinates>
                </Point>
            </Placemark>
            <Placemark>
                <name>B51F0474_17.TIF</name>
                <styleUrl>#place_mark_circle_highlight</styleUrl>
                <Point>
                    <extrude>true</extrude>
                    <altitudeMode>relativeToGround</altitudeMode>
                    <coordinates>5.697456185,51.569783366</coordinates>
                </Point>
            </Placemark>
            <Placemark>
                <name>B51F0474_18.TIF</name>
                <styleUrl>#place_mark_circle_highlight</styleUrl>
                <Point>
                    <extrude>true</extrude>
                    <altitudeMode>relativeToGround</altitudeMode>
                    <coordinates>5.697456185,51.569783366</coordinates>
                </Point>
            </Placemark>
            <Placemark>
                <name>B51F0474_19.TIF</name>
                <styleUrl>#place_mark_circle_highlight</styleUrl>
                <Point>
                    <extrude>true</extrude>
                    <altitudeMode>relativeToGround</altitudeMode>
                    <coordinates>5.697456185,51.569783366</coordinates>
                </Point>
            </Placemark>
            <Placemark>
                <name>B45H0507_00.JPG</name>
                <styleUrl>#place_mark_circle_highlight</styleUrl>
                <Point>
                    <extrude>true</extrude>
                    <altitudeMode>relativeToGround</altitudeMode>
                    <coordinates>5.675139406,51.601120938</coordinates>
                </Point>
            </Placemark>
            <Placemark>
                <name>B45H0507_01.JPG</name>
                <styleUrl>#place_mark_circle_highlight</styleUrl>
                <Point>
                    <extrude>true</extrude>
                    <altitudeMode>relativeToGround</altitudeMode>
                    <coordinates>5.675139406,51.601120938</coordinates>
                </Point>
            </Placemark>
            <Placemark>
                <name>B45H0507_02.JPG</name>
                <styleUrl>#place_mark_circle_highlight</styleUrl>
                <Point>
                    <extrude>true</extrude>
                    <altitudeMode>relativeToGround</altitudeMode>
                    <coordinates>5.675139406,51.601120938</coordinates>
                </Point>
            </Placemark>
            <Placemark>
                <name>B45H0507_03.JPG</name>
                <styleUrl>#place_mark_circle_highlight</styleUrl>
                <Point>
                    <extrude>true</extrude>
                    <altitudeMode>relativeToGround</altitudeMode>
                    <coordinates>5.675139406,51.601120938</coordinates>
                </Point>
            </Placemark>
            <Placemark>
                <name>B45H0507_04.JPG</name>
                <styleUrl>#place_mark_circle_highlight</styleUrl>
                <Point>
                    <extrude>true</extrude>
                    <altitudeMode>relativeToGround</altitudeMode>
                    <coordinates>5.675139406,51.601120938</coordinates>
                </Point>
            </Placemark>
            <Placemark>
                <name>B51E0323_00.JPG</name>
                <styleUrl>#place_mark_circle_highlight</styleUrl>
                <Point>
                    <extrude>true</extrude>
                    <altitudeMode>relativeToGround</altitudeMode>
                    <coordinates>5.531653798,51.560623046</coordinates>
                </Point>
            </Placemark>
            <Placemark>
                <name>B51E0323_01.JPG</name>
                <styleUrl>#place_mark_circle_highlight</styleUrl>
                <Point>
                    <extrude>true</extrude>
                    <altitudeMode>relativeToGround</altitudeMode>
                    <coordinates>5.531653798,51.560623046</coordinates>
                </Point>
            </Placemark>
            <Placemark>
                <name>B51E0323_02.jpg</name>
                <styleUrl>#place_mark_circle_highlight</styleUrl>
                <Point>
                    <extrude>true</extrude>
                    <altitudeMode>relativeToGround</altitudeMode>
                    <coordinates>5.531653798,51.560623046</coordinates>
                </Point>
            </Placemark>
            <Placemark>
                <name>B51E0323_03.JPG</name>
                <styleUrl>#place_mark_circle_highlight</styleUrl>
                <Point>
                    <extrude>true</extrude>
                    <altitudeMode>relativeToGround</altitudeMode>
                    <coordinates>5.531653798,51.560623046</coordinates>
                </Point>
            </Placemark>
            <Placemark>
                <name>B51E0323_04.JPG</name>
                <styleUrl>#place_mark_circle_highlight</styleUrl>
                <Point>
                    <extrude>true</extrude>
                    <altitudeMode>relativeToGround</altitudeMode>
                    <coordinates>5.531653798,51.560623046</coordinates>
                </Point>
            </Placemark>
            <Placemark>
                <name>B51E0323_05.JPG</name>
                <styleUrl>#place_mark_circle_highlight</styleUrl>
                <Point>
                    <extrude>true</extrude>
                    <altitudeMode>relativeToGround</altitudeMode>
                    <coordinates>5.531653798,51.560623046</coordinates>
                </Point>
            </Placemark>
            <Placemark>
                <name>B45H0508_00.JPG</name>
                <styleUrl>#place_mark_circle_highlight</styleUrl>
                <Point>
                    <extrude>true</extrude>
                    <altitudeMode>relativeToGround</altitudeMode>
                    <coordinates>5.641619627,51.602906536</coordinates>
                </Point>
            </Placemark>
            <Placemark>
                <name>B45H0508_01.JPG</name>
                <styleUrl>#place_mark_circle_highlight</styleUrl>
                <Point>
                    <extrude>true</extrude>
                    <altitudeMode>relativeToGround</altitudeMode>
                    <coordinates>5.641619627,51.602906536</coordinates>
                </Point>
            </Placemark>
            <Placemark>
                <name>B45H0508_02.JPG</name>
                <styleUrl>#place_mark_circle_highlight</styleUrl>
                <Point>
                    <extrude>true</extrude>
                    <altitudeMode>relativeToGround</altitudeMode>
                    <coordinates>5.641619627,51.602906536</coordinates>
                </Point>
            </Placemark>
            <Placemark>
                <name>B45G1163_00.JPG</name>
                <styleUrl>#place_mark_circle_highlight</styleUrl>
                <Point>
                    <extrude>true</extrude>
                    <altitudeMode>relativeToGround</altitudeMode>
                    <coordinates>5.579798823,51.603294403</coordinates>
                </Point>
            </Placemark>
            <Placemark>
                <name>B45G1163_01.JPG</name>
                <styleUrl>#place_mark_circle_highlight</styleUrl>
                <Point>
                    <extrude>true</extrude>
                    <altitudeMode>relativeToGround</altitudeMode>
                    <coordinates>5.579798823,51.603294403</coordinates>
                </Point>
            </Placemark>
            <Placemark>
                <name>B45G1163_02.JPG</name>
                <styleUrl>#place_mark_circle_highlight</styleUrl>
                <Point>
                    <extrude>true</extrude>
                    <altitudeMode>relativeToGround</altitudeMode>
                    <coordinates>5.579798823,51.603294403</coordinates>
                </Point>
            </Placemark>
            <Placemark>
                <name>B45G1163_03.JPG</name>
                <styleUrl>#place_mark_circle_highlight</styleUrl>
                <Point>
                    <extrude>true</extrude>
                    <altitudeMode>relativeToGround</altitudeMode>
                    <coordinates>5.579798823,51.603294403</coordinates>
                </Point>
            </Placemark>
            <Placemark>
                <name>B45G1163_04.JPG</name>
                <styleUrl>#place_mark_circle_highlight</styleUrl>
                <Point>
                    <extrude>true</extrude>
                    <altitudeMode>relativeToGround</altitudeMode>
                    <coordinates>5.579798823,51.603294403</coordinates>
                </Point>
            </Placemark>
            <Placemark>
                <name>B45G1163_05.JPG</name>
                <styleUrl>#place_mark_circle_highlight</styleUrl>
                <Point>
                    <extrude>true</extrude>
                    <altitudeMode>relativeToGround</altitudeMode>
                    <coordinates>5.579798823,51.603294403</coordinates>
                </Point>
            </Placemark>
            <Placemark>
                <name>B51F1963_00.JPG</name>
                <styleUrl>#place_mark_circle_highlight</styleUrl>
                <Point>
                    <extrude>true</extrude>
                    <altitudeMode>relativeToGround</altitudeMode>
                    <coordinates>5.666023393,51.573961425</coordinates>
                </Point>
            </Placemark>
            <Placemark>
                <name>B51F1963_01.JPG</name>
                <styleUrl>#place_mark_circle_highlight</styleUrl>
                <Point>
                    <extrude>true</extrude>
                    <altitudeMode>relativeToGround</altitudeMode>
                    <coordinates>5.666023393,51.573961425</coordinates>
                </Point>
            </Placemark>
        </Folder>
        <Folder>
            <name>DINO_GeologischBooronderzoekBoormonsterprofiel</name>
            <open>true</open>
            <Placemark>
                <name>B51F1891.csv</name>
                <styleUrl>#place_mark_circle_highlight</styleUrl>
                <Point>
                    <extrude>true</extrude>
                    <altitudeMode>relativeToGround</altitudeMode>
                    <coordinates>5.61581722,51.552623557</coordinates>
                </Point>
            </Placemark>
            <Placemark>
                <name>B51F1891.gef</name>
                <styleUrl>#place_mark_circle_highlight</styleUrl>
                <Point>
                    <extrude>true</extrude>
                    <altitudeMode>relativeToGround</altitudeMode>
                    <coordinates>5.61581722,51.552623557</coordinates>
                </Point>
            </Placemark>
            <Placemark>
                <name>B51E1901.csv</name>
                <styleUrl>#place_mark_circle_highlight</styleUrl>
                <Point>
                    <extrude>true</extrude>
                    <altitudeMode>relativeToGround</altitudeMode>
                    <coordinates>5.5819101,51.573943105</coordinates>
                </Point>
            </Placemark>
            <Placemark>
                <name>B51E1901.gef</name>
                <styleUrl>#place_mark_circle_highlight</styleUrl>
                <Point>
                    <extrude>true</extrude>
                    <altitudeMode>relativeToGround</altitudeMode>
                    <coordinates>5.5819101,51.573943105</coordinates>
                </Point>
            </Placemark>
            <Placemark>
                <name>B45G0542.csv</name>
                <styleUrl>#place_mark_circle_highlight</styleUrl>
                <Point>
                    <extrude>true</extrude>
                    <altitudeMode>relativeToGround</altitudeMode>
                    <coordinates>5.514361228,51.601064895</coordinates>
                </Point>
            </Placemark>
            <Placemark>
                <name>B45G0542.gef</name>
                <styleUrl>#place_mark_circle_highlight</styleUrl>
                <Point>
                    <extrude>true</extrude>
                    <altitudeMode>relativeToGround</altitudeMode>
                    <coordinates>5.514361228,51.601064895</coordinates>
                </Point>
            </Placemark>
            <Placemark>
                <name>B46C0266.csv</name>
                <styleUrl>#place_mark_circle_highlight</styleUrl>
                <Point>
                    <extrude>true</extrude>
                    <altitudeMode>relativeToGround</altitudeMode>
                    <coordinates>5.757577602,51.591315829</coordinates>
                </Point>
            </Placemark>
            <Placemark>
                <name>B46C0266.gef</name>
                <styleUrl>#place_mark_circle_highlight</styleUrl>
                <Point>
                    <extrude>true</extrude>
                    <altitudeMode>relativeToGround</altitudeMode>
                    <coordinates>5.757577602,51.591315829</coordinates>
                </Point>
            </Placemark>
            <Placemark>
                <name>B45H0331.csv</name>
                <styleUrl>#place_mark_circle_highlight</styleUrl>
                <Point>
                    <extrude>true</extrude>
                    <altitudeMode>relativeToGround</altitudeMode>
                    <coordinates>5.715333844,51.588628665</coordinates>
                </Point>
            </Placemark>
            <Placemark>
                <name>B45H0331.gef</name>
                <styleUrl>#place_mark_circle_highlight</styleUrl>
                <Point>
                    <extrude>true</extrude>
                    <altitudeMode>relativeToGround</altitudeMode>
                    <coordinates>5.715333844,51.588628665</coordinates>
                </Point>
            </Placemark>
            <Placemark>
                <name>B51E1527.csv</name>
                <styleUrl>#place_mark_circle_highlight</styleUrl>
                <Point>
                    <extrude>true</extrude>
                    <altitudeMode>relativeToGround</altitudeMode>
                    <coordinates>5.593261668,51.573716896</coordinates>
                </Point>
            </Placemark>
            <Placemark>
                <name>B51E1527.gef</name>
                <styleUrl>#place_mark_circle_highlight</styleUrl>
                <Point>
                    <extrude>true</extrude>
                    <altitudeMode>relativeToGround</altitudeMode>
                    <coordinates>5.593261668,51.573716896</coordinates>
                </Point>
            </Placemark>
            <Placemark>
                <name>B51F1236.csv</name>
                <styleUrl>#place_mark_circle_highlight</styleUrl>
                <Point>
                    <extrude>true</extrude>
                    <altitudeMode>relativeToGround</altitudeMode>
                    <coordinates>5.637916783,51.549315334</coordinates>
                </Point>
            </Placemark>
            <Placemark>
                <name>B51F1236.gef</name>
                <styleUrl>#place_mark_circle_highlight</styleUrl>
                <Point>
                    <extrude>true</extrude>
                    <altitudeMode>relativeToGround</altitudeMode>
                    <coordinates>5.637916783,51.549315334</coordinates>
                </Point>
            </Placemark>
            <Placemark>
                <name>B51E0069.csv</name>
                <styleUrl>#place_mark_circle_highlight</styleUrl>
                <Point>
                    <extrude>true</extrude>
                    <altitudeMode>relativeToGround</altitudeMode>
                    <coordinates>5.552976029,51.58258985</coordinates>
                </Point>
            </Placemark>
            <Placemark>
                <name>B51E0069.gef</name>
                <styleUrl>#place_mark_circle_highlight</styleUrl>
                <Point>
                    <extrude>true</extrude>
                    <altitudeMode>relativeToGround</altitudeMode>
                    <coordinates>5.552976029,51.58258985</coordinates>
                </Point>
            </Placemark>
            <Placemark>
                <name>B51E1429.csv</name>
                <styleUrl>#place_mark_circle_highlight</styleUrl>
                <Point>
                    <extrude>true</extrude>
                    <altitudeMode>relativeToGround</altitudeMode>
                    <coordinates>5.589110673,51.564762487</coordinates>
                </Point>
            </Placemark>
            <Placemark>
                <name>B51E1429.gef</name>
                <styleUrl>#place_mark_circle_highlight</styleUrl>
                <Point>
                    <extrude>true</extrude>
                    <altitudeMode>relativeToGround</altitudeMode>
                    <coordinates>5.589110673,51.564762487</coordinates>
                </Point>
            </Placemark>
            <Placemark>
                <name>B51E1330.csv</name>
                <styleUrl>#place_mark_circle_highlight</styleUrl>
                <Point>
                    <extrude>true</extrude>
                    <altitudeMode>relativeToGround</altitudeMode>
                    <coordinates>5.579453033,51.555790156</coordinates>
                </Point>
            </Placemark>
            <Placemark>
                <name>B51E1330.gef</name>
                <styleUrl>#place_mark_circle_highlight</styleUrl>
                <Point>
                    <extrude>true</extrude>
                    <altitudeMode>relativeToGround</altitudeMode>
                    <coordinates>5.579453033,51.555790156</coordinates>
                </Point>
            </Placemark>
            <Placemark>
                <name>B51E0818.csv</name>
                <styleUrl>#place_mark_circle_highlight</styleUrl>
                <Point>
                    <extrude>true</extrude>
                    <altitudeMode>relativeToGround</altitudeMode>
                    <coordinates>5.497844927,51.51667867</coordinates>
                </Point>
            </Placemark>
            <Placemark>
                <name>B51E0818.gef</name>
                <styleUrl>#place_mark_circle_highlight</styleUrl>
                <Point>
                    <extrude>true</extrude>
                    <altitudeMode>relativeToGround</altitudeMode>
                    <coordinates>5.497844927,51.51667867</coordinates>
                </Point>
            </Placemark>
            <Placemark>
                <name>B51F1316.csv</name>
                <styleUrl>#place_mark_circle_highlight</styleUrl>
                <Point>
                    <extrude>true</extrude>
                    <altitudeMode>relativeToGround</altitudeMode>
                    <coordinates>5.613078288,51.55273675</coordinates>
                </Point>
            </Placemark>
            <Placemark>
                <name>B51F1316.gef</name>
                <styleUrl>#place_mark_circle_highlight</styleUrl>
                <Point>
                    <extrude>true</extrude>
                    <altitudeMode>relativeToGround</altitudeMode>
                    <coordinates>5.613078288,51.55273675</coordinates>
                </Point>
            </Placemark>
            <Placemark>
                <name>B45H0233.csv</name>
                <styleUrl>#place_mark_circle_highlight</styleUrl>
                <Point>
                    <extrude>true</extrude>
                    <altitudeMode>relativeToGround</altitudeMode>
                    <coordinates>5.653592892,51.591841842</coordinates>
                </Point>
            </Placemark>
            <Placemark>
                <name>B45H0233.gef</name>
                <styleUrl>#place_mark_circle_highlight</styleUrl>
                <Point>
                    <extrude>true</extrude>
                    <altitudeMode>relativeToGround</altitudeMode>
                    <coordinates>5.653592892,51.591841842</coordinates>
                </Point>
            </Placemark>
            <Placemark>
                <name>B51E0701.csv</name>
                <styleUrl>#place_mark_circle_highlight</styleUrl>
                <Point>
                    <extrude>true</extrude>
                    <altitudeMode>relativeToGround</altitudeMode>
                    <coordinates>5.502425401,51.504953049</coordinates>
                </Point>
            </Placemark>
            <Placemark>
                <name>B51E0701.gef</name>
                <styleUrl>#place_mark_circle_highlight</styleUrl>
                <Point>
                    <extrude>true</extrude>
                    <altitudeMode>relativeToGround</altitudeMode>
                    <coordinates>5.502425401,51.504953049</coordinates>
                </Point>
            </Placemark>
            <Placemark>
                <name>B52A0247.csv</name>
                <styleUrl>#place_mark_circle_highlight</styleUrl>
                <Point>
                    <extrude>true</extrude>
                    <altitudeMode>relativeToGround</altitudeMode>
                    <coordinates>5.757564031,51.547244407</coordinates>
                </Point>
            </Placemark>
            <Placemark>
                <name>B52A0247.gef</name>
                <styleUrl>#place_mark_circle_highlight</styleUrl>
                <Point>
                    <extrude>true</extrude>
                    <altitudeMode>relativeToGround</altitudeMode>
                    <coordinates>5.757564031,51.547244407</coordinates>
                </Point>
            </Placemark>
            <Placemark>
                <name>B45G1073.csv</name>
                <styleUrl>#place_mark_circle_highlight</styleUrl>
                <Point>
                    <extrude>true</extrude>
                    <altitudeMode>relativeToGround</altitudeMode>
                    <coordinates>5.548809168,51.599566161</coordinates>
                </Point>
            </Placemark>
            <Placemark>
                <name>B45G1073.gef</name>
                <styleUrl>#place_mark_circle_highlight</styleUrl>
                <Point>
                    <extrude>true</extrude>
                    <altitudeMode>relativeToGround</altitudeMode>
                    <coordinates>5.548809168,51.599566161</coordinates>
                </Point>
            </Placemark>
            <Placemark>
                <name>B51F1512.csv</name>
                <styleUrl>#place_mark_circle_highlight</styleUrl>
                <Point>
                    <extrude>true</extrude>
                    <altitudeMode>relativeToGround</altitudeMode>
                    <coordinates>5.618000602,51.573697612</coordinates>
                </Point>
            </Placemark>
            <Placemark>
                <name>B51F1512.gef</name>
                <styleUrl>#place_mark_circle_highlight</styleUrl>
                <Point>
                    <extrude>true</extrude>
                    <altitudeMode>relativeToGround</altitudeMode>
                    <coordinates>5.618000602,51.573697612</coordinates>
                </Point>
            </Placemark>
            <Placemark>
                <name>B51F1432.csv</name>
                <styleUrl>#place_mark_circle_highlight</styleUrl>
                <Point>
                    <extrude>true</extrude>
                    <altitudeMode>relativeToGround</altitudeMode>
                    <coordinates>5.641982067,51.564659146</coordinates>
                </Point>
            </Placemark>
            <Placemark>
                <name>B51F1432.gef</name>
                <styleUrl>#place_mark_circle_highlight</styleUrl>
                <Point>
                    <extrude>true</extrude>
                    <altitudeMode>relativeToGround</altitudeMode>
                    <coordinates>5.641982067,51.564659146</coordinates>
                </Point>
            </Placemark>
            <Placemark>
                <name>B45H0073.csv</name>
                <styleUrl>#place_mark_circle_highlight</styleUrl>
                <Point>
                    <extrude>true</extrude>
                    <altitudeMode>relativeToGround</altitudeMode>
                    <coordinates>5.725223002,51.59893741</coordinates>
                </Point>
            </Placemark>
            <Placemark>
                <name>B45H0073.gef</name>
                <styleUrl>#place_mark_circle_highlight</styleUrl>
                <Point>
                    <extrude>true</extrude>
                    <altitudeMode>relativeToGround</altitudeMode>
                    <coordinates>5.725223002,51.59893741</coordinates>
                </Point>
            </Placemark>
            <Placemark>
                <name>B45G0186.csv</name>
                <styleUrl>#place_mark_circle_highlight</styleUrl>
                <Point>
                    <extrude>true</extrude>
                    <altitudeMode>relativeToGround</altitudeMode>
                    <coordinates>5.580852376,51.61676656</coordinates>
                </Point>
            </Placemark>
            <Placemark>
                <name>B45G0186.gef</name>
                <styleUrl>#place_mark_circle_highlight</styleUrl>
                <Point>
                    <extrude>true</extrude>
                    <altitudeMode>relativeToGround</altitudeMode>
                    <coordinates>5.580852376,51.61676656</coordinates>
                </Point>
            </Placemark>
            <Placemark>
                <name>B51E1232.csv</name>
                <styleUrl>#place_mark_circle_highlight</styleUrl>
                <Point>
                    <extrude>true</extrude>
                    <altitudeMode>relativeToGround</altitudeMode>
                    <coordinates>5.560209263,51.549824839</coordinates>
                </Point>
            </Placemark>
            <Placemark>
                <name>B51E1232.gef</name>
                <styleUrl>#place_mark_circle_highlight</styleUrl>
                <Point>
                    <extrude>true</extrude>
                    <altitudeMode>relativeToGround</altitudeMode>
                    <coordinates>5.560209263,51.549824839</coordinates>
                </Point>
            </Placemark>
            <Placemark>
                <name>B51F1254.csv</name>
                <styleUrl>#place_mark_circle_highlight</styleUrl>
                <Point>
                    <extrude>true</extrude>
                    <altitudeMode>relativeToGround</altitudeMode>
                    <coordinates>5.670695158,51.543622467</coordinates>
                </Point>
            </Placemark>
            <Placemark>
                <name>B51F1254.gef</name>
                <styleUrl>#place_mark_circle_highlight</styleUrl>
                <Point>
                    <extrude>true</extrude>
                    <altitudeMode>relativeToGround</altitudeMode>
                    <coordinates>5.670695158,51.543622467</coordinates>
                </Point>
            </Placemark>
            <Placemark>
                <name>B45G1171.csv</name>
                <styleUrl>#place_mark_circle_highlight</styleUrl>
                <Point>
                    <extrude>true</extrude>
                    <altitudeMode>relativeToGround</altitudeMode>
                    <coordinates>5.523946807,51.615939156</coordinates>
                </Point>
            </Placemark>
            <Placemark>
                <name>B45G1171.gef</name>
                <styleUrl>#place_mark_circle_highlight</styleUrl>
                <Point>
                    <extrude>true</extrude>
                    <altitudeMode>relativeToGround</altitudeMode>
                    <coordinates>5.523946807,51.615939156</coordinates>
                </Point>
            </Placemark>
            <Placemark>
                <name>B51E1250.csv</name>
                <styleUrl>#place_mark_circle_highlight</styleUrl>
                <Point>
                    <extrude>true</extrude>
                    <altitudeMode>relativeToGround</altitudeMode>
                    <coordinates>5.589044037,51.549778555</coordinates>
                </Point>
            </Placemark>
            <Placemark>
                <name>B51E1250.gef</name>
                <styleUrl>#place_mark_circle_highlight</styleUrl>
                <Point>
                    <extrude>true</extrude>
                    <altitudeMode>relativeToGround</altitudeMode>
                    <coordinates>5.589044037,51.549778555</coordinates>
                </Point>
            </Placemark>
            <Placemark>
                <name>B51F1334.csv</name>
                <styleUrl>#place_mark_circle_highlight</styleUrl>
                <Point>
                    <extrude>true</extrude>
                    <altitudeMode>relativeToGround</altitudeMode>
                    <coordinates>5.627512413,51.555701164</coordinates>
                </Point>
            </Placemark>
            <Placemark>
                <name>B51F1334.gef</name>
                <styleUrl>#place_mark_circle_highlight</styleUrl>
                <Point>
                    <extrude>true</extrude>
                    <altitudeMode>relativeToGround</altitudeMode>
                    <coordinates>5.627512413,51.555701164</coordinates>
                </Point>
            </Placemark>
            <Placemark>
                <name>B51E0032.csv</name>
                <styleUrl>#place_mark_circle_highlight</styleUrl>
                <Point>
                    <extrude>true</extrude>
                    <altitudeMode>relativeToGround</altitudeMode>
                    <coordinates>5.571417778,51.540675241</coordinates>
                </Point>
            </Placemark>
            <Placemark>
                <name>B51E0032.gef</name>
                <styleUrl>#place_mark_circle_highlight</styleUrl>
                <Point>
                    <extrude>true</extrude>
                    <altitudeMode>relativeToGround</altitudeMode>
                    <coordinates>5.571417778,51.540675241</coordinates>
                </Point>
            </Placemark>
            <Placemark>
                <name>B45H0368.csv</name>
                <styleUrl>#place_mark_circle_highlight</styleUrl>
                <Point>
                    <extrude>true</extrude>
                    <altitudeMode>relativeToGround</altitudeMode>
                    <coordinates>5.632629164,51.611303136</coordinates>
                </Point>
            </Placemark>
            <Placemark>
                <name>B45H0368.gef</name>
                <styleUrl>#place_mark_circle_highlight</styleUrl>
                <Point>
                    <extrude>true</extrude>
                    <altitudeMode>relativeToGround</altitudeMode>
                    <coordinates>5.632629164,51.611303136</coordinates>
                </Point>
            </Placemark>
            <Placemark>
                <name>B51E1625.csv</name>
                <styleUrl>#place_mark_circle_highlight</styleUrl>
                <Point>
                    <extrude>true</extrude>
                    <altitudeMode>relativeToGround</altitudeMode>
                    <coordinates>5.584384803,51.585741004</coordinates>
                </Point>
            </Placemark>
            <Placemark>
                <name>B51E1625.gef</name>
                <styleUrl>#place_mark_circle_highlight</styleUrl>
                <Point>
                    <extrude>true</extrude>
                    <altitudeMode>relativeToGround</altitudeMode>
                    <coordinates>5.584384803,51.585741004</coordinates>
                </Point>
            </Placemark>
            <Placemark>
                <name>B45H0055.csv</name>
                <styleUrl>#place_mark_circle_highlight</styleUrl>
                <Point>
                    <extrude>true</extrude>
                    <altitudeMode>relativeToGround</altitudeMode>
                    <coordinates>5.716307914,51.603547059</coordinates>
                </Point>
            </Placemark>
            <Placemark>
                <name>B45H0055.gef</name>
                <styleUrl>#place_mark_circle_highlight</styleUrl>
                <Point>
                    <extrude>true</extrude>
                    <altitudeMode>relativeToGround</altitudeMode>
                    <coordinates>5.716307914,51.603547059</coordinates>
                </Point>
            </Placemark>
            <Placemark>
                <name>B51F1414.csv</name>
                <styleUrl>#place_mark_circle_highlight</styleUrl>
                <Point>
                    <extrude>true</extrude>
                    <altitudeMode>relativeToGround</altitudeMode>
                    <coordinates>5.608335353,51.564727677</coordinates>
                </Point>
            </Placemark>
            <Placemark>
                <name>B51F1414.gef</name>
                <styleUrl>#place_mark_circle_highlight</styleUrl>
                <Point>
                    <extrude>true</extrude>
                    <altitudeMode>relativeToGround</altitudeMode>
                    <coordinates>5.608335353,51.564727677</coordinates>
                </Point>
            </Placemark>
            <Placemark>
                <name>B51F1727.csv</name>
                <styleUrl>#place_mark_circle_highlight</styleUrl>
                <Point>
                    <extrude>true</extrude>
                    <altitudeMode>relativeToGround</altitudeMode>
                    <coordinates>5.692672524,51.557679261</coordinates>
                </Point>
            </Placemark>
            <Placemark>
                <name>B51F1727.gef</name>
                <styleUrl>#place_mark_circle_highlight</styleUrl>
                <Point>
                    <extrude>true</extrude>
                    <altitudeMode>relativeToGround</altitudeMode>
                    <coordinates>5.692672524,51.557679261</coordinates>
                </Point>
            </Placemark>
            <Placemark>
                <name>B51F1727_00.jpg</name>
                <styleUrl>#place_mark_circle_highlight</styleUrl>
                <Point>
                    <extrude>true</extrude>
                    <altitudeMode>relativeToGround</altitudeMode>
                    <coordinates>5.692672524,51.557679261</coordinates>
                </Point>
            </Placemark>
            <Placemark>
                <name>B45G0426.csv</name>
                <styleUrl>#place_mark_circle_highlight</styleUrl>
                <Point>
                    <extrude>true</extrude>
                    <altitudeMode>relativeToGround</altitudeMode>
                    <coordinates>5.584224379,51.615232865</coordinates>
                </Point>
            </Placemark>
            <Placemark>
                <name>B45G0426.gef</name>
                <styleUrl>#place_mark_circle_highlight</styleUrl>
                <Point>
                    <extrude>true</extrude>
                    <altitudeMode>relativeToGround</altitudeMode>
                    <coordinates>5.584224379,51.615232865</coordinates>
                </Point>
            </Placemark>
            <Placemark>
                <name>B45G1091.csv</name>
                <styleUrl>#place_mark_circle_highlight</styleUrl>
                <Point>
                    <extrude>true</extrude>
                    <altitudeMode>relativeToGround</altitudeMode>
                    <coordinates>5.513182828,51.613299631</coordinates>
                </Point>
            </Placemark>
            <Placemark>
                <name>B45G1091.gef</name>
                <styleUrl>#place_mark_circle_highlight</styleUrl>
                <Point>
                    <extrude>true</extrude>
                    <altitudeMode>relativeToGround</altitudeMode>
                    <coordinates>5.513182828,51.613299631</coordinates>
                </Point>
            </Placemark>
            <Placemark>
                <name>B51E1705.csv</name>
                <styleUrl>#place_mark_circle_highlight</styleUrl>
                <Point>
                    <extrude>true</extrude>
                    <altitudeMode>relativeToGround</altitudeMode>
                    <coordinates>5.504212789,51.533436249</coordinates>
                </Point>
            </Placemark>
            <Placemark>
                <name>B51E1705.gef</name>
                <styleUrl>#place_mark_circle_highlight</styleUrl>
                <Point>
                    <extrude>true</extrude>
                    <altitudeMode>relativeToGround</altitudeMode>
                    <coordinates>5.504212789,51.533436249</coordinates>
                </Point>
            </Placemark>
            <Placemark>
                <name>B51E1705_00.jpg</name>
                <styleUrl>#place_mark_circle_highlight</styleUrl>
                <Point>
                    <extrude>true</extrude>
                    <altitudeMode>relativeToGround</altitudeMode>
                    <coordinates>5.504212789,51.533436249</coordinates>
                </Point>
            </Placemark>
            <Placemark>
                <name>B51F1677.csv</name>
                <styleUrl>#place_mark_circle_highlight</styleUrl>
                <Point>
                    <extrude>true</extrude>
                    <altitudeMode>relativeToGround</altitudeMode>
                    <coordinates>5.743053197,51.579379098</coordinates>
                </Point>
            </Placemark>
            <Placemark>
                <name>B51F1677.gef</name>
                <styleUrl>#place_mark_circle_highlight</styleUrl>
                <Point>
                    <extrude>true</extrude>
                    <altitudeMode>relativeToGround</altitudeMode>
                    <coordinates>5.743053197,51.579379098</coordinates>
                </Point>
            </Placemark>
            <Placemark>
                <name>B51E1189.csv</name>
                <styleUrl>#place_mark_circle_highlight</styleUrl>
                <Point>
                    <extrude>true</extrude>
                    <altitudeMode>relativeToGround</altitudeMode>
                    <coordinates>5.50829778,51.546600412</coordinates>
                </Point>
            </Placemark>
            <Placemark>
                <name>B51E1189.gef</name>
                <styleUrl>#place_mark_circle_highlight</styleUrl>
                <Point>
                    <extrude>true</extrude>
                    <altitudeMode>relativeToGround</altitudeMode>
                    <coordinates>5.50829778,51.546600412</coordinates>
                </Point>
            </Placemark>
            <Placemark>
                <name>B51F1549.csv</name>
                <styleUrl>#place_mark_circle_highlight</styleUrl>
                <Point>
                    <extrude>true</extrude>
                    <altitudeMode>relativeToGround</altitudeMode>
                    <coordinates>5.685326817,51.576538454</coordinates>
                </Point>
            </Placemark>
            <Placemark>
                <name>B51F1549.gef</name>
                <styleUrl>#place_mark_circle_highlight</styleUrl>
                <Point>
                    <extrude>true</extrude>
                    <altitudeMode>relativeToGround</altitudeMode>
                    <coordinates>5.685326817,51.576538454</coordinates>
                </Point>
            </Placemark>
            <Placemark>
                <name>B51F1953.csv</name>
                <styleUrl>#place_mark_circle_highlight</styleUrl>
                <Point>
                    <extrude>true</extrude>
                    <altitudeMode>relativeToGround</altitudeMode>
                    <coordinates>5.638076961,51.549602627</coordinates>
                </Point>
            </Placemark>
            <Placemark>
                <name>B51F1953.gef</name>
                <styleUrl>#place_mark_circle_highlight</styleUrl>
                <Point>
                    <extrude>true</extrude>
                    <altitudeMode>relativeToGround</altitudeMode>
                    <coordinates>5.638076961,51.549602627</coordinates>
                </Point>
            </Placemark>
            <Placemark>
                <name>B51F1352.csv</name>
                <styleUrl>#place_mark_circle_highlight</styleUrl>
                <Point>
                    <extrude>true</extrude>
                    <altitudeMode>relativeToGround</altitudeMode>
                    <coordinates>5.646764747,51.558653192</coordinates>
                </Point>
            </Placemark>
            <Placemark>
                <name>B51F1352.gef</name>
                <styleUrl>#place_mark_circle_highlight</styleUrl>
                <Point>
                    <extrude>true</extrude>
                    <altitudeMode>relativeToGround</altitudeMode>
                    <coordinates>5.646764747,51.558653192</coordinates>
                </Point>
            </Placemark>
            <Placemark>
                <name>B51F0447.csv</name>
                <styleUrl>#place_mark_circle_highlight</styleUrl>
                <Point>
                    <extrude>true</extrude>
                    <altitudeMode>relativeToGround</altitudeMode>
                    <coordinates>5.673973032,51.574175891</coordinates>
                </Point>
            </Placemark>
            <Placemark>
                <name>B51F0447.gef</name>
                <styleUrl>#place_mark_circle_highlight</styleUrl>
                <Point>
                    <extrude>true</extrude>
                    <altitudeMode>relativeToGround</altitudeMode>
                    <coordinates>5.673973032,51.574175891</coordinates>
                </Point>
            </Placemark>
            <Placemark>
                <name>B51F1101.csv</name>
                <styleUrl>#place_mark_circle_highlight</styleUrl>
                <Point>
                    <extrude>true</extrude>
                    <altitudeMode>relativeToGround</altitudeMode>
                    <coordinates>5.613003779,51.537752822</coordinates>
                </Point>
            </Placemark>
            <Placemark>
                <name>B51F1101.gef</name>
                <styleUrl>#place_mark_circle_highlight</styleUrl>
                <Point>
                    <extrude>true</extrude>
                    <altitudeMode>relativeToGround</altitudeMode>
                    <coordinates>5.613003779,51.537752822</coordinates>
                </Point>
            </Placemark>
            <Placemark>
                <name>B45G0604.csv</name>
                <styleUrl>#place_mark_circle_highlight</styleUrl>
                <Point>
                    <extrude>true</extrude>
                    <altitudeMode>relativeToGround</altitudeMode>
                    <coordinates>5.528668508,51.606801135</coordinates>
                </Point>
            </Placemark>
            <Placemark>
                <name>B45G0604.gef</name>
                <styleUrl>#place_mark_circle_highlight</styleUrl>
                <Point>
                    <extrude>true</extrude>
                    <altitudeMode>relativeToGround</altitudeMode>
                    <coordinates>5.528668508,51.606801135</coordinates>
                </Point>
            </Placemark>
            <Placemark>
                <name>B45G0003.csv</name>
                <styleUrl>#place_mark_circle_highlight</styleUrl>
                <Point>
                    <extrude>true</extrude>
                    <altitudeMode>relativeToGround</altitudeMode>
                    <coordinates>5.580941472,51.610591251</coordinates>
                </Point>
            </Placemark>
            <Placemark>
                <name>B45G0003.gef</name>
                <styleUrl>#place_mark_circle_highlight</styleUrl>
                <Point>
                    <extrude>true</extrude>
                    <altitudeMode>relativeToGround</altitudeMode>
                    <coordinates>5.580941472,51.610591251</coordinates>
                </Point>
            </Placemark>
            <Placemark>
                <name>B51E1643.csv</name>
                <styleUrl>#place_mark_circle_highlight</styleUrl>
                <Point>
                    <extrude>true</extrude>
                    <altitudeMode>relativeToGround</altitudeMode>
                    <coordinates>5.58919069,51.582739588</coordinates>
                </Point>
            </Placemark>
            <Placemark>
                <name>B51E1643.gef</name>
                <styleUrl>#place_mark_circle_highlight</styleUrl>
                <Point>
                    <extrude>true</extrude>
                    <altitudeMode>relativeToGround</altitudeMode>
                    <coordinates>5.58919069,51.582739588</coordinates>
                </Point>
            </Placemark>
            <Placemark>
                <name>B45G1105.csv</name>
                <styleUrl>#place_mark_circle_highlight</styleUrl>
                <Point>
                    <extrude>true</extrude>
                    <altitudeMode>relativeToGround</altitudeMode>
                    <coordinates>5.52547234,51.604863428</coordinates>
                </Point>
            </Placemark>
            <Placemark>
                <name>B45G1105.gef</name>
                <styleUrl>#place_mark_circle_highlight</styleUrl>
                <Point>
                    <extrude>true</extrude>
                    <altitudeMode>relativeToGround</altitudeMode>
                    <coordinates>5.52547234,51.604863428</coordinates>
                </Point>
            </Placemark>
            <Placemark>
                <name>B51E1495.csv</name>
                <styleUrl>#place_mark_circle_highlight</styleUrl>
                <Point>
                    <extrude>true</extrude>
                    <altitudeMode>relativeToGround</altitudeMode>
                    <coordinates>5.560289263,51.570804163</coordinates>
                </Point>
            </Placemark>
            <Placemark>
                <name>B51E1495.gef</name>
                <styleUrl>#place_mark_circle_highlight</styleUrl>
                <Point>
                    <extrude>true</extrude>
                    <altitudeMode>relativeToGround</altitudeMode>
                    <coordinates>5.560289263,51.570804163</coordinates>
                </Point>
            </Placemark>
            <Placemark>
                <name>B45H0313.csv</name>
                <styleUrl>#place_mark_circle_highlight</styleUrl>
                <Point>
                    <extrude>true</extrude>
                    <altitudeMode>relativeToGround</altitudeMode>
                    <coordinates>5.680619951,51.591534424</coordinates>
                </Point>
            </Placemark>
            <Placemark>
                <name>B45H0313.gef</name>
                <styleUrl>#place_mark_circle_highlight</styleUrl>
                <Point>
                    <extrude>true</extrude>
                    <altitudeMode>relativeToGround</altitudeMode>
                    <coordinates>5.680619951,51.591534424</coordinates>
                </Point>
            </Placemark>
            <Placemark>
                <name>B45G0480.csv</name>
                <styleUrl>#place_mark_circle_highlight</styleUrl>
                <Point>
                    <extrude>true</extrude>
                    <altitudeMode>relativeToGround</altitudeMode>
                    <coordinates>5.50744392,51.588847744</coordinates>
                </Point>
            </Placemark>
            <Placemark>
                <name>B45G0480.gef</name>
                <styleUrl>#place_mark_circle_highlight</styleUrl>
                <Point>
                    <extrude>true</extrude>
                    <altitudeMode>relativeToGround</altitudeMode>
                    <coordinates>5.50744392,51.588847744</coordinates>
                </Point>
            </Placemark>
            <Placemark>
                <name>B51F1480.csv</name>
                <styleUrl>#place_mark_circle_highlight</styleUrl>
                <Point>
                    <extrude>true</extrude>
                    <altitudeMode>relativeToGround</altitudeMode>
                    <coordinates>5.721112976,51.570005781</coordinates>
                </Point>
            </Placemark>
            <Placemark>
                <name>B51F1480.gef</name>
                <styleUrl>#place_mark_circle_highlight</styleUrl>
                <Point>
                    <extrude>true</extrude>
                    <altitudeMode>relativeToGround</altitudeMode>
                    <coordinates>5.721112976,51.570005781</coordinates>
                </Point>
            </Placemark>
            <Placemark>
                <name>B51F1370.csv</name>
                <styleUrl>#place_mark_circle_highlight</styleUrl>
                <Point>
                    <extrude>true</extrude>
                    <altitudeMode>relativeToGround</altitudeMode>
                    <coordinates>5.684652753,51.552935966</coordinates>
                </Point>
            </Placemark>
            <Placemark>
                <name>B51F1370.gef</name>
                <styleUrl>#place_mark_circle_highlight</styleUrl>
                <Point>
                    <extrude>true</extrude>
                    <altitudeMode>relativeToGround</altitudeMode>
                    <coordinates>5.684652753,51.552935966</coordinates>
                </Point>
            </Placemark>
            <Placemark>
                <name>B51E0014.csv</name>
                <styleUrl>#place_mark_circle_highlight</styleUrl>
                <Point>
                    <extrude>true</extrude>
                    <altitudeMode>relativeToGround</altitudeMode>
                    <coordinates>5.509560175,51.506869348</coordinates>
                </Point>
            </Placemark>
            <Placemark>
                <name>B51E0014.gef</name>
                <styleUrl>#place_mark_circle_highlight</styleUrl>
                <Point>
                    <extrude>true</extrude>
                    <altitudeMode>relativeToGround</altitudeMode>
                    <coordinates>5.509560175,51.506869348</coordinates>
                </Point>
            </Placemark>
            <Placemark>
                <name>B45G0622.csv</name>
                <styleUrl>#place_mark_circle_highlight</styleUrl>
                <Point>
                    <extrude>true</extrude>
                    <altitudeMode>relativeToGround</altitudeMode>
                    <coordinates>5.561437053,51.606756862</coordinates>
                </Point>
            </Placemark>
            <Placemark>
                <name>B45G0622.gef</name>
                <styleUrl>#place_mark_circle_highlight</styleUrl>
                <Point>
                    <extrude>true</extrude>
                    <altitudeMode>relativeToGround</altitudeMode>
                    <coordinates>5.561437053,51.606756862</coordinates>
                </Point>
            </Placemark>
            <Placemark>
                <name>B51E1509.csv</name>
                <styleUrl>#place_mark_circle_highlight</styleUrl>
                <Point>
                    <extrude>true</extrude>
                    <altitudeMode>relativeToGround</altitudeMode>
                    <coordinates>5.579529205,51.573767277</coordinates>
                </Point>
            </Placemark>
            <Placemark>
                <name>B51E1509.gef</name>
                <styleUrl>#place_mark_circle_highlight</styleUrl>
                <Point>
                    <extrude>true</extrude>
                    <altitudeMode>relativeToGround</altitudeMode>
                    <coordinates>5.579529205,51.573767277</coordinates>
                </Point>
            </Placemark>
            <Placemark>
                <name>B45G0021.csv</name>
                <styleUrl>#place_mark_circle_highlight</styleUrl>
                <Point>
                    <extrude>true</extrude>
                    <altitudeMode>relativeToGround</altitudeMode>
                    <coordinates>5.541835326,51.615728087</coordinates>
                </Point>
            </Placemark>
            <Placemark>
                <name>B45G0021.gef</name>
                <styleUrl>#place_mark_circle_highlight</styleUrl>
                <Point>
                    <extrude>true</extrude>
                    <altitudeMode>relativeToGround</altitudeMode>
                    <coordinates>5.541835326,51.615728087</coordinates>
                </Point>
            </Placemark>
            <Placemark>
                <name>B51F1218.csv</name>
                <styleUrl>#place_mark_circle_highlight</styleUrl>
                <Point>
                    <extrude>true</extrude>
                    <altitudeMode>relativeToGround</altitudeMode>
                    <coordinates>5.61784834,51.543738783</coordinates>
                </Point>
            </Placemark>
            <Placemark>
                <name>B51F1218.gef</name>
                <styleUrl>#place_mark_circle_highlight</styleUrl>
                <Point>
                    <extrude>true</extrude>
                    <altitudeMode>relativeToGround</altitudeMode>
                    <coordinates>5.61784834,51.543738783</coordinates>
                </Point>
            </Placemark>
            <Placemark>
                <name>B51F1499.csv</name>
                <styleUrl>#place_mark_circle_highlight</styleUrl>
                <Point>
                    <extrude>true</extrude>
                    <altitudeMode>relativeToGround</altitudeMode>
                    <coordinates>5.60839375,51.576709406</coordinates>
                </Point>
            </Placemark>
            <Placemark>
                <name>B51F1499.gef</name>
                <styleUrl>#place_mark_circle_highlight</styleUrl>
                <Point>
                    <extrude>true</extrude>
                    <altitudeMode>relativeToGround</altitudeMode>
                    <coordinates>5.60839375,51.576709406</coordinates>
                </Point>
            </Placemark>
            <Placemark>
                <name>B51F1530.csv</name>
                <styleUrl>#place_mark_circle_highlight</styleUrl>
                <Point>
                    <extrude>true</extrude>
                    <altitudeMode>relativeToGround</altitudeMode>
                    <coordinates>5.646833328,51.570643889</coordinates>
                </Point>
            </Placemark>
            <Placemark>
                <name>B51F1530.gef</name>
                <styleUrl>#place_mark_circle_highlight</styleUrl>
                <Point>
                    <extrude>true</extrude>
                    <altitudeMode>relativeToGround</altitudeMode>
                    <coordinates>5.646833328,51.570643889</coordinates>
                </Point>
            </Placemark>
            <Placemark>
                <name>B51F1659.csv</name>
                <styleUrl>#place_mark_circle_highlight</styleUrl>
                <Point>
                    <extrude>true</extrude>
                    <altitudeMode>relativeToGround</altitudeMode>
                    <coordinates>5.709417127,51.582469932</coordinates>
                </Point>
            </Placemark>
            <Placemark>
                <name>B51F1659.gef</name>
                <styleUrl>#place_mark_circle_highlight</styleUrl>
                <Point>
                    <extrude>true</extrude>
                    <altitudeMode>relativeToGround</altitudeMode>
                    <coordinates>5.709417127,51.582469932</coordinates>
                </Point>
            </Placemark>
            <Placemark>
                <name>B45H0203.csv</name>
                <styleUrl>#place_mark_circle_highlight</styleUrl>
                <Point>
                    <extrude>true</extrude>
                    <altitudeMode>relativeToGround</altitudeMode>
                    <coordinates>5.714949629,51.615325968</coordinates>
                </Point>
            </Placemark>
            <Placemark>
                <name>B45H0203.gef</name>
                <styleUrl>#place_mark_circle_highlight</styleUrl>
                <Point>
                    <extrude>true</extrude>
                    <altitudeMode>relativeToGround</altitudeMode>
                    <coordinates>5.714949629,51.615325968</coordinates>
                </Point>
            </Placemark>
            <Placemark>
                <name>B52A1090.csv</name>
                <styleUrl>#place_mark_circle_highlight</styleUrl>
                <Point>
                    <extrude>true</extrude>
                    <altitudeMode>relativeToGround</altitudeMode>
                    <coordinates>5.762124836,51.55833987</coordinates>
                </Point>
            </Placemark>
            <Placemark>
                <name>B52A1090.gef</name>
                <styleUrl>#place_mark_circle_highlight</styleUrl>
                <Point>
                    <extrude>true</extrude>
                    <altitudeMode>relativeToGround</altitudeMode>
                    <coordinates>5.762124836,51.55833987</coordinates>
                </Point>
            </Placemark>
            <Placemark>
                <name>B51F0084.csv</name>
                <styleUrl>#place_mark_circle_highlight</styleUrl>
                <Point>
                    <extrude>true</extrude>
                    <altitudeMode>relativeToGround</altitudeMode>
                    <coordinates>5.680572874,51.557485558</coordinates>
                </Point>
            </Placemark>
            <Placemark>
                <name>B51F0084.gef</name>
                <styleUrl>#place_mark_circle_highlight</styleUrl>
                <Point>
                    <extrude>true</extrude>
                    <altitudeMode>relativeToGround</altitudeMode>
                    <coordinates>5.680572874,51.557485558</coordinates>
                </Point>
            </Placemark>
            <Placemark>
                <name>B45H0301.csv</name>
                <styleUrl>#place_mark_circle_highlight</styleUrl>
                <Point>
                    <extrude>true</extrude>
                    <altitudeMode>relativeToGround</altitudeMode>
                    <coordinates>5.661383992,51.591581133</coordinates>
                </Point>
            </Placemark>
            <Placemark>
                <name>B45H0301.gef</name>
                <styleUrl>#place_mark_circle_highlight</styleUrl>
                <Point>
                    <extrude>true</extrude>
                    <altitudeMode>relativeToGround</altitudeMode>
                    <coordinates>5.661383992,51.591581133</coordinates>
                </Point>
            </Placemark>
            <Placemark>
                <name>B45G0015.csv</name>
                <styleUrl>#place_mark_circle_highlight</styleUrl>
                <Point>
                    <extrude>true</extrude>
                    <altitudeMode>relativeToGround</altitudeMode>
                    <coordinates>5.583919342,51.614810915</coordinates>
                </Point>
            </Placemark>
            <Placemark>
                <name>B45G0015.gef</name>
                <styleUrl>#place_mark_circle_highlight</styleUrl>
                <Point>
                    <extrude>true</extrude>
                    <altitudeMode>relativeToGround</altitudeMode>
                    <coordinates>5.583919342,51.614810915</coordinates>
                </Point>
            </Placemark>
            <Placemark>
                <name>B51E1379.csv</name>
                <styleUrl>#place_mark_circle_highlight</styleUrl>
                <Point>
                    <extrude>true</extrude>
                    <altitudeMode>relativeToGround</altitudeMode>
                    <coordinates>5.526595873,51.561860636</coordinates>
                </Point>
            </Placemark>
            <Placemark>
                <name>B51E1379.gef</name>
                <styleUrl>#place_mark_circle_highlight</styleUrl>
                <Point>
                    <extrude>true</extrude>
                    <altitudeMode>relativeToGround</altitudeMode>
                    <coordinates>5.526595873,51.561860636</coordinates>
                </Point>
            </Placemark>
            <Placemark>
                <name>B51F1290.csv</name>
                <styleUrl>#place_mark_circle_highlight</styleUrl>
                <Point>
                    <extrude>true</extrude>
                    <altitudeMode>relativeToGround</altitudeMode>
                    <coordinates>5.718755706,51.543495916</coordinates>
                </Point>
            </Placemark>
            <Placemark>
                <name>B51F1290.gef</name>
                <styleUrl>#place_mark_circle_highlight</styleUrl>
                <Point>
                    <extrude>true</extrude>
                    <altitudeMode>relativeToGround</altitudeMode>
                    <coordinates>5.718755706,51.543495916</coordinates>
                </Point>
            </Placemark>
            <Placemark>
                <name>B51F1389.csv</name>
                <styleUrl>#place_mark_circle_highlight</styleUrl>
                <Point>
                    <extrude>true</extrude>
                    <altitudeMode>relativeToGround</altitudeMode>
                    <coordinates>5.709204475,51.552511316</coordinates>
                </Point>
            </Placemark>
            <Placemark>
                <name>B51F1389.gef</name>
                <styleUrl>#place_mark_circle_highlight</styleUrl>
                <Point>
                    <extrude>true</extrude>
                    <altitudeMode>relativeToGround</altitudeMode>
                    <coordinates>5.709204475,51.552511316</coordinates>
                </Point>
            </Placemark>
            <Placemark>
                <name>B51E1280.csv</name>
                <styleUrl>#place_mark_circle_highlight</styleUrl>
                <Point>
                    <extrude>true</extrude>
                    <altitudeMode>relativeToGround</altitudeMode>
                    <coordinates>5.503283486,51.558883958</coordinates>
                </Point>
            </Placemark>
            <Placemark>
                <name>B51E1280.gef</name>
                <styleUrl>#place_mark_circle_highlight</styleUrl>
                <Point>
                    <extrude>true</extrude>
                    <altitudeMode>relativeToGround</altitudeMode>
                    <coordinates>5.503283486,51.558883958</coordinates>
                </Point>
            </Placemark>
            <Placemark>
                <name>B45G0597.csv</name>
                <styleUrl>#place_mark_circle_highlight</styleUrl>
                <Point>
                    <extrude>true</extrude>
                    <altitudeMode>relativeToGround</altitudeMode>
                    <coordinates>5.493735481,51.607197775</coordinates>
                </Point>
            </Placemark>
            <Placemark>
                <name>B45G0597.gef</name>
                <styleUrl>#place_mark_circle_highlight</styleUrl>
                <Point>
                    <extrude>true</extrude>
                    <altitudeMode>relativeToGround</altitudeMode>
                    <coordinates>5.493735481,51.607197775</coordinates>
                </Point>
            </Placemark>
            <Placemark>
                <name>B45G0492.csv</name>
                <styleUrl>#place_mark_circle_highlight</styleUrl>
                <Point>
                    <extrude>true</extrude>
                    <altitudeMode>relativeToGround</altitudeMode>
                    <coordinates>5.531498351,51.588820494</coordinates>
                </Point>
            </Placemark>
            <Placemark>
                <name>B45G0492.gef</name>
                <styleUrl>#place_mark_circle_highlight</styleUrl>
                <Point>
                    <extrude>true</extrude>
                    <altitudeMode>relativeToGround</altitudeMode>
                    <coordinates>5.531498351,51.588820494</coordinates>
                </Point>
            </Placemark>
            <Placemark>
                <name>B51F1444.csv</name>
                <styleUrl>#place_mark_circle_highlight</styleUrl>
                <Point>
                    <extrude>true</extrude>
                    <altitudeMode>relativeToGround</altitudeMode>
                    <coordinates>5.651601572,51.564637773</coordinates>
                </Point>
            </Placemark>
            <Placemark>
                <name>B51F1444.gef</name>
                <styleUrl>#place_mark_circle_highlight</styleUrl>
                <Point>
                    <extrude>true</extrude>
                    <altitudeMode>relativeToGround</altitudeMode>
                    <coordinates>5.651601572,51.564637773</coordinates>
                </Point>
            </Placemark>
            <Placemark>
                <name>B51E1104.csv</name>
                <styleUrl>#place_mark_circle_highlight</styleUrl>
                <Point>
                    <extrude>true</extrude>
                    <altitudeMode>relativeToGround</altitudeMode>
                    <coordinates>5.512022043,51.537877522</coordinates>
                </Point>
            </Placemark>
            <Placemark>
                <name>B51E1104.gef</name>
                <styleUrl>#place_mark_circle_highlight</styleUrl>
                <Point>
                    <extrude>true</extrude>
                    <altitudeMode>relativeToGround</altitudeMode>
                    <coordinates>5.512022043,51.537877522</coordinates>
                </Point>
            </Placemark>
            <Placemark>
                <name>B51F1665.csv</name>
                <styleUrl>#place_mark_circle_highlight</styleUrl>
                <Point>
                    <extrude>true</extrude>
                    <altitudeMode>relativeToGround</altitudeMode>
                    <coordinates>5.728626591,51.579422154</coordinates>
                </Point>
            </Placemark>
            <Placemark>
                <name>B51F1665.gef</name>
                <styleUrl>#place_mark_circle_highlight</styleUrl>
                <Point>
                    <extrude>true</extrude>
                    <altitudeMode>relativeToGround</altitudeMode>
                    <coordinates>5.728626591,51.579422154</coordinates>
                </Point>
            </Placemark>
            <Placemark>
                <name>B52A1084.csv</name>
                <styleUrl>#place_mark_circle_highlight</styleUrl>
                <Point>
                    <extrude>true</extrude>
                    <altitudeMode>relativeToGround</altitudeMode>
                    <coordinates>5.747705954,51.558511114</coordinates>
                </Point>
            </Placemark>
            <Placemark>
                <name>B52A1084.gef</name>
                <styleUrl>#place_mark_circle_highlight</styleUrl>
                <Point>
                    <extrude>true</extrude>
                    <altitudeMode>relativeToGround</altitudeMode>
                    <coordinates>5.747705954,51.558511114</coordinates>
                </Point>
            </Placemark>
            <Placemark>
                <name>B45G0610.csv</name>
                <styleUrl>#place_mark_circle_highlight</styleUrl>
                <Point>
                    <extrude>true</extrude>
                    <altitudeMode>relativeToGround</altitudeMode>
                    <coordinates>5.523479846,51.609503878</coordinates>
                </Point>
            </Placemark>
            <Placemark>
                <name>B45G0610.gef</name>
                <styleUrl>#place_mark_circle_highlight</styleUrl>
                <Point>
                    <extrude>true</extrude>
                    <altitudeMode>relativeToGround</altitudeMode>
                    <coordinates>5.523479846,51.609503878</coordinates>
                </Point>
            </Placemark>
            <Placemark>
                <name>B51F0164.csv</name>
                <styleUrl>#place_mark_circle_highlight</styleUrl>
                <Point>
                    <extrude>true</extrude>
                    <altitudeMode>relativeToGround</altitudeMode>
                    <coordinates>5.690803325,51.545549435</coordinates>
                </Point>
            </Placemark>
            <Placemark>
                <name>B51F0164.gef</name>
                <styleUrl>#place_mark_circle_highlight</styleUrl>
                <Point>
                    <extrude>true</extrude>
                    <altitudeMode>relativeToGround</altitudeMode>
                    <coordinates>5.690803325,51.545549435</coordinates>
                </Point>
            </Placemark>
            <Placemark>
                <name>B51F1206.csv</name>
                <styleUrl>#place_mark_circle_highlight</styleUrl>
                <Point>
                    <extrude>true</extrude>
                    <altitudeMode>relativeToGround</altitudeMode>
                    <coordinates>5.603461357,51.549743758</coordinates>
                </Point>
            </Placemark>
            <Placemark>
                <name>B51F1206.gef</name>
                <styleUrl>#place_mark_circle_highlight</styleUrl>
                <Point>
                    <extrude>true</extrude>
                    <altitudeMode>relativeToGround</altitudeMode>
                    <coordinates>5.603461357,51.549743758</coordinates>
                </Point>
            </Placemark>
            <Placemark>
                <name>B51F1272.csv</name>
                <styleUrl>#place_mark_circle_highlight</styleUrl>
                <Point>
                    <extrude>true</extrude>
                    <altitudeMode>relativeToGround</altitudeMode>
                    <coordinates>5.699047922,51.54953666</coordinates>
                </Point>
            </Placemark>
            <Placemark>
                <name>B51F1272.gef</name>
                <styleUrl>#place_mark_circle_highlight</styleUrl>
                <Point>
                    <extrude>true</extrude>
                    <altitudeMode>relativeToGround</altitudeMode>
                    <coordinates>5.699047922,51.54953666</coordinates>
                </Point>
            </Placemark>
            <Placemark>
                <name>B51E1483.csv</name>
                <styleUrl>#place_mark_circle_highlight</styleUrl>
                <Point>
                    <extrude>true</extrude>
                    <altitudeMode>relativeToGround</altitudeMode>
                    <coordinates>5.536244358,51.570837327</coordinates>
                </Point>
            </Placemark>
            <Placemark>
                <name>B51E1483.gef</name>
                <styleUrl>#place_mark_circle_highlight</styleUrl>
                <Point>
                    <extrude>true</extrude>
                    <altitudeMode>relativeToGround</altitudeMode>
                    <coordinates>5.536244358,51.570837327</coordinates>
                </Point>
            </Placemark>
            <Placemark>
                <name>B51F1304.csv</name>
                <styleUrl>#place_mark_circle_highlight</styleUrl>
                <Point>
                    <extrude>true</extrude>
                    <altitudeMode>relativeToGround</altitudeMode>
                    <coordinates>5.745159584,51.546474112</coordinates>
                </Point>
            </Placemark>
            <Placemark>
                <name>B51F1304.gef</name>
                <styleUrl>#place_mark_circle_highlight</styleUrl>
                <Point>
                    <extrude>true</extrude>
                    <altitudeMode>relativeToGround</altitudeMode>
                    <coordinates>5.745159584,51.546474112</coordinates>
                </Point>
            </Placemark>
            <Placemark>
                <name>B51F1647.csv</name>
                <styleUrl>#place_mark_circle_highlight</styleUrl>
                <Point>
                    <extrude>true</extrude>
                    <altitudeMode>relativeToGround</altitudeMode>
                    <coordinates>5.690205062,51.585514548</coordinates>
                </Point>
            </Placemark>
            <Placemark>
                <name>B51F1647.gef</name>
                <styleUrl>#place_mark_circle_highlight</styleUrl>
                <Point>
                    <extrude>true</extrude>
                    <altitudeMode>relativeToGround</altitudeMode>
                    <coordinates>5.690205062,51.585514548</coordinates>
                </Point>
            </Placemark>
            <Placemark>
                <name>B51F1462.csv</name>
                <styleUrl>#place_mark_circle_highlight</styleUrl>
                <Point>
                    <extrude>true</extrude>
                    <altitudeMode>relativeToGround</altitudeMode>
                    <coordinates>5.685830259,51.56754852</coordinates>
                </Point>
            </Placemark>
            <Placemark>
                <name>B51F1462.gef</name>
                <styleUrl>#place_mark_circle_highlight</styleUrl>
                <Point>
                    <extrude>true</extrude>
                    <altitudeMode>relativeToGround</altitudeMode>
                    <coordinates>5.685830259,51.56754852</coordinates>
                </Point>
            </Placemark>
            <Placemark>
                <name>B51E1299.csv</name>
                <styleUrl>#place_mark_circle_highlight</styleUrl>
                <Point>
                    <extrude>true</extrude>
                    <altitudeMode>relativeToGround</altitudeMode>
                    <coordinates>5.536195131,51.555853371</coordinates>
                </Point>
            </Placemark>
            <Placemark>
                <name>B51E1299.gef</name>
                <styleUrl>#place_mark_circle_highlight</styleUrl>
                <Point>
                    <extrude>true</extrude>
                    <altitudeMode>relativeToGround</altitudeMode>
                    <coordinates>5.536195131,51.555853371</coordinates>
                </Point>
            </Placemark>
            <Placemark>
                <name>B51F1542.csv</name>
                <styleUrl>#place_mark_circle_highlight</styleUrl>
                <Point>
                    <extrude>true</extrude>
                    <altitudeMode>relativeToGround</altitudeMode>
                    <coordinates>5.666097227,51.576585932</coordinates>
                </Point>
            </Placemark>
            <Placemark>
                <name>B51F1542.gef</name>
                <styleUrl>#place_mark_circle_highlight</styleUrl>
                <Point>
                    <extrude>true</extrude>
                    <altitudeMode>relativeToGround</altitudeMode>
                    <coordinates>5.666097227,51.576585932</coordinates>
                </Point>
            </Placemark>
            <Placemark>
                <name>B45H0288.csv</name>
                <styleUrl>#place_mark_circle_highlight</styleUrl>
                <Point>
                    <extrude>true</extrude>
                    <altitudeMode>relativeToGround</altitudeMode>
                    <coordinates>5.642131885,51.591328085</coordinates>
                </Point>
            </Placemark>
            <Placemark>
                <name>B45H0288.gef</name>
                <styleUrl>#place_mark_circle_highlight</styleUrl>
                <Point>
                    <extrude>true</extrude>
                    <altitudeMode>relativeToGround</altitudeMode>
                    <coordinates>5.642131885,51.591328085</coordinates>
                </Point>
            </Placemark>